[{"longitude":113.767529,"latitude":26.207631,"country":"China","city":"Zhongcun","street_name":"Messerschmidt","street_suffix":"Road","street_number":"7319"},
{"longitude":101.5326734,"latitude":3.0100681,"country":"Malaysia","city":"Shah Alam","street_name":"Schmedeman","street_suffix":"Junction","street_number":"3"},
{"longitude":127.4348221,"latitude":37.2719952,"country":"South Korea","city":"Icheon-si","street_name":"Becker","street_suffix":"Road","street_number":"83792"},
{"longitude":118.390218,"latitude":30.411429,"country":"China","city":"Zengjia","street_name":"Morningstar","street_suffix":"Hill","street_number":"3"},
{"longitude":105.7233814,"latitude":-6.6126215,"country":"Indonesia","city":"Ciseureuheun","street_name":"Reindahl","street_suffix":"Drive","street_number":"16102"},
{"longitude":71.7511913,"latitude":30.6847903,"country":"Pakistan","city":"Ahmadpur Siāl","street_name":"Thackeray","street_suffix":"Way","street_number":"0"},
{"longitude":"30.19978","latitude":"51.38494","country":"Ukraine","city":"Kryva Hora","street_name":"Hayes","street_suffix":"Court","street_number":"5"},
{"longitude":"113.4758","latitude":"-6.8956","country":"Indonesia","city":"Bukbatang","street_name":"Brown","street_suffix":"Alley","street_number":"800"},
{"longitude":19.5512903,"latitude":49.9805725,"country":"Poland","city":"Ryczów","street_name":"Goodland","street_suffix":"Center","street_number":"3024"},
{"longitude":-69.3667194,"latitude":-15.0139992,"country":"Peru","city":"Cojata","street_name":"Crescent Oaks","street_suffix":"Avenue","street_number":"2"},
{"longitude":-73.840258,"latitude":8.588397,"country":"Colombia","city":"Río Viejo","street_name":"Golf","street_suffix":"Hill","street_number":"813"},
{"longitude":4.7174062,"latitude":8.1393408,"country":"Nigeria","city":"Offa","street_name":"Declaration","street_suffix":"Crossing","street_number":"852"},
{"longitude":11.5721966,"latitude":52.1557661,"country":"Germany","city":"Magdeburg","street_name":"Sutherland","street_suffix":"Pass","street_number":"068"},
{"longitude":-7.883045,"latitude":40.3356039,"country":"Portugal","city":"Nogueira do Cravo","street_name":"Hansons","street_suffix":"Crossing","street_number":"62967"},
{"longitude":-92.5253639,"latitude":44.0557303,"country":"United States","city":"Rochester","street_name":"Oriole","street_suffix":"Avenue","street_number":"77"},
{"longitude":120.5550729,"latitude":40.798124,"country":"China","city":"Heiiyugou","street_name":"Westport","street_suffix":"Alley","street_number":"3583"},
{"longitude":102.652483,"latitude":29.344616,"country":"China","city":"Hanyuan","street_name":"Loomis","street_suffix":"Point","street_number":"32"},
{"longitude":36.5321926,"latitude":55.6691322,"country":"Russia","city":"Kolyubakino","street_name":"Coleman","street_suffix":"Pass","street_number":"4649"},
{"longitude":107.0303221,"latitude":10.9667039,"country":"Vietnam","city":"Trảng Bom","street_name":"Lakewood Gardens","street_suffix":"Point","street_number":"6"},
{"longitude":34.873121,"latitude":32.060497,"country":"Israel","city":"Ganné Tiqwa","street_name":"Saint Paul","street_suffix":"Terrace","street_number":"382"},
{"longitude":20.1402594,"latitude":30.214647,"country":"Libya","city":"Ajdabiya","street_name":"Oxford","street_suffix":"Trail","street_number":"7730"},
{"longitude":22.5397872,"latitude":41.139883,"country":"Macedonia","city":"Gevgelija","street_name":"Lakeland","street_suffix":"Parkway","street_number":"347"},
{"longitude":102.527197,"latitude":24.347324,"country":"China","city":"Yuxi","street_name":"Crowley","street_suffix":"Center","street_number":"46098"},
{"longitude":20.9791382,"latitude":44.2327226,"country":"Serbia","city":"Rača","street_name":"Forster","street_suffix":"Plaza","street_number":"7"},
{"longitude":"108.16","latitude":"-7.3825","country":"Indonesia","city":"Babakankalong","street_name":"Melrose","street_suffix":"Court","street_number":"86635"},
{"longitude":115.566002,"latitude":-8.25944,"country":"Indonesia","city":"Banjar Kubu","street_name":"Bluestem","street_suffix":"Junction","street_number":"6540"},
{"longitude":113.3053411,"latitude":23.1197573,"country":"China","city":"Shuitian","street_name":"Crest Line","street_suffix":"Pass","street_number":"7177"},
{"longitude":121.231805,"latitude":28.13593,"country":"China","city":"Yuhuang","street_name":"Veith","street_suffix":"Center","street_number":"523"},
{"longitude":108.2347863,"latitude":-6.4668348,"country":"Indonesia","city":"Telagasari","street_name":"Jay","street_suffix":"Park","street_number":"53765"},
{"longitude":4.024099,"latitude":48.305818,"country":"France","city":"Troyes","street_name":"Declaration","street_suffix":"Plaza","street_number":"539"},
{"longitude":-12.5441446,"latitude":15.0186358,"country":"Senegal","city":"Diawara","street_name":"Lakewood","street_suffix":"Trail","street_number":"83411"},
{"longitude":-93.5711466,"latitude":41.5359175,"country":"United States","city":"Des Moines","street_name":"Oakridge","street_suffix":"Drive","street_number":"118"},
{"longitude":-38.2893787,"latitude":-7.9821907,"country":"Brazil","city":"Serra Talhada","street_name":"Crownhardt","street_suffix":"Road","street_number":"10"},
{"longitude":113.4943199,"latitude":23.0861808,"country":"China","city":"Donglu","street_name":"Carioca","street_suffix":"Place","street_number":"8648"},
{"longitude":121.366653,"latitude":16.660204,"country":"Philippines","city":"Diadi","street_name":"Veith","street_suffix":"Parkway","street_number":"26266"},
{"longitude":-6.2152673,"latitude":53.3323703,"country":"Ireland","city":"Sandymount","street_name":"Weeping Birch","street_suffix":"Court","street_number":"4624"},
{"longitude":-44.4513347,"latitude":-22.4709659,"country":"Brazil","city":"Resende","street_name":"Aberg","street_suffix":"Trail","street_number":"7224"},
{"longitude":0.3697581,"latitude":46.6698573,"country":"France","city":"Futuroscope","street_name":"Elmside","street_suffix":"Drive","street_number":"5185"},
{"longitude":24.8195808,"latitude":48.3343908,"country":"Ukraine","city":"Kosmach","street_name":"La Follette","street_suffix":"Lane","street_number":"1417"},
{"longitude":124.672209,"latitude":9.128588,"country":"Philippines","city":"Catarman","street_name":"Southridge","street_suffix":"Plaza","street_number":"991"},
{"longitude":-43.4150073,"latitude":-20.3652719,"country":"Brazil","city":"Mariana","street_name":"Bartelt","street_suffix":"Crossing","street_number":"68"},
{"longitude":105.2428853,"latitude":9.5384134,"country":"Vietnam","city":"Vĩnh Thuận","street_name":"Dexter","street_suffix":"Circle","street_number":"000"},
{"longitude":122.0103514,"latitude":13.3393279,"country":"Philippines","city":"Torrijos","street_name":"Moland","street_suffix":"Lane","street_number":"51076"},
{"longitude":30.368267,"latitude":50.3919,"country":"Ukraine","city":"Vyshneve","street_name":"Main","street_suffix":"Crossing","street_number":"64795"},
{"longitude":-8.5468762,"latitude":40.6205598,"country":"Portugal","city":"Horta","street_name":"Ronald Regan","street_suffix":"Drive","street_number":"19"},
{"longitude":101.9343734,"latitude":48.6057111,"country":"Mongolia","city":"Uubulan","street_name":"Prairieview","street_suffix":"Way","street_number":"7110"},
{"longitude":107.269482,"latitude":28.109577,"country":"China","city":"Wangcao","street_name":"Bowman","street_suffix":"Crossing","street_number":"9"},
{"longitude":109.592921,"latitude":27.950753,"country":"China","city":"Tuojiang","street_name":"Toban","street_suffix":"Point","street_number":"78027"},
{"longitude":108.5314753,"latitude":-7.0487503,"country":"Indonesia","city":"Pamupukan","street_name":"Summit","street_suffix":"Way","street_number":"85"},
{"longitude":18.49897,"latitude":52.55106,"country":"Poland","city":"Piotrków Kujawski","street_name":"Merchant","street_suffix":"Road","street_number":"0118"},
{"longitude":29.2402612,"latitude":46.3039325,"country":"Ukraine","city":"Borodino","street_name":"Tennyson","street_suffix":"Drive","street_number":"455"},
{"longitude":35.8988626,"latitude":33.1786556,"country":"Syria","city":"Khān Arnabah","street_name":"Manufacturers","street_suffix":"Drive","street_number":"986"},
{"longitude":4.65065,"latitude":45.288656,"country":"France","city":"Annonay","street_name":"Chive","street_suffix":"Park","street_number":"0"},
{"longitude":119.4744572,"latitude":-5.096602,"country":"Indonesia","city":"Tene","street_name":"Steensland","street_suffix":"Street","street_number":"9"},
{"longitude":18.6516275,"latitude":50.2368774,"country":"Poland","city":"Knurów","street_name":"Westridge","street_suffix":"Junction","street_number":"85564"},
{"longitude":102.5704008,"latitude":17.1782591,"country":"Thailand","city":"Ban Nong Wua So","street_name":"Forest Dale","street_suffix":"Hill","street_number":"3441"},
{"longitude":30.69768,"latitude":30.75782,"country":"Egypt","city":"Kawm Ḩamādah","street_name":"Mayfield","street_suffix":"Park","street_number":"5091"},
{"longitude":118.663681,"latitude":31.922974,"country":"China","city":"Biqiao","street_name":"Huxley","street_suffix":"Alley","street_number":"0"},
{"longitude":10.7477822,"latitude":59.9278844,"country":"Norway","city":"Oslo","street_name":"Pawling","street_suffix":"Lane","street_number":"4"},
{"longitude":17.9293975,"latitude":45.1616228,"country":"Croatia","city":"Slobodnica","street_name":"Sachs","street_suffix":"Junction","street_number":"347"},
{"longitude":"44.06134","latitude":"43.57344","country":"Russia","city":"Kotlyarevskaya","street_name":"Hallows","street_suffix":"Park","street_number":"3052"},
{"longitude":"106.0776","latitude":"-6.3019","country":"Indonesia","city":"Campraksanta","street_name":"Melody","street_suffix":"Place","street_number":"0523"},
{"longitude":19.7142007,"latitude":43.7504777,"country":"Serbia","city":"Čajetina","street_name":"Marquette","street_suffix":"Park","street_number":"6"},
{"longitude":-40.3496894,"latitude":-14.5124962,"country":"Brazil","city":"Poções","street_name":"Golf View","street_suffix":"Court","street_number":"892"},
{"longitude":106.9093,"latitude":-6.334631,"country":"Indonesia","city":"Cilangkap","street_name":"Thackeray","street_suffix":"Road","street_number":"8073"},
{"longitude":5.2579968,"latitude":14.8904575,"country":"Niger","city":"Tahoua","street_name":"Bellgrove","street_suffix":"Park","street_number":"3225"},
{"longitude":-86.8270545,"latitude":14.549965,"country":"Honduras","city":"Guaimaca","street_name":"Melody","street_suffix":"Place","street_number":"94029"},
{"longitude":-54.7769108,"latitude":-34.0391502,"country":"Uruguay","city":"Mariscala","street_name":"Namekagon","street_suffix":"Pass","street_number":"48732"},
{"longitude":22.9616227,"latitude":42.5442603,"country":"Bulgaria","city":"Radomir","street_name":"Truax","street_suffix":"Drive","street_number":"05775"},
{"longitude":128.7415441,"latitude":35.8250555,"country":"South Korea","city":"Gyeongsan-si","street_name":"Manitowish","street_suffix":"Lane","street_number":"2"},
{"longitude":100.1255164,"latitude":0.1840524,"country":"Indonesia","city":"Lubuk Sikaping","street_name":"Carioca","street_suffix":"Park","street_number":"5621"},
{"longitude":106.6281901,"latitude":10.7900517,"country":"Vietnam","city":"Quận Tân Phú","street_name":"Laurel","street_suffix":"Alley","street_number":"42"},
{"longitude":-0.5702805,"latitude":44.8501354,"country":"France","city":"Bordeaux","street_name":"Crowley","street_suffix":"Circle","street_number":"2"},
{"longitude":30.8991338,"latitude":28.8228403,"country":"Egypt","city":"Al Fashn","street_name":"Mallard","street_suffix":"Street","street_number":"6"},
{"longitude":77.73699,"latitude":39.242504,"country":"China","city":"Wuku","street_name":"Macpherson","street_suffix":"Parkway","street_number":"2989"},
{"longitude":112.4500076,"latitude":-7.466569,"country":"Indonesia","city":"Magersari","street_name":"Merry","street_suffix":"Park","street_number":"748"},
{"longitude":129.9478595,"latitude":32.851086,"country":"Japan","city":"Isahaya","street_name":"Mayer","street_suffix":"Court","street_number":"0"},
{"longitude":120.94639,"latitude":14.707895,"country":"Philippines","city":"Polo","street_name":"Logan","street_suffix":"Crossing","street_number":"1"},
{"longitude":18.0084483,"latitude":59.2442754,"country":"Sweden","city":"Huddinge","street_name":"Debra","street_suffix":"Center","street_number":"56"},
{"longitude":20.760809,"latitude":51.2366183,"country":"Poland","city":"Chlewiska","street_name":"Coolidge","street_suffix":"Street","street_number":"0437"},
{"longitude":-42.0366974,"latitude":-22.9506902,"country":"Brazil","city":"Cabo","street_name":"Corry","street_suffix":"Circle","street_number":"765"},
{"longitude":21.8324138,"latitude":50.05998,"country":"Poland","city":"Trzciana","street_name":"Mcguire","street_suffix":"Junction","street_number":"947"},
{"longitude":-71.0998393,"latitude":19.6478178,"country":"Dominican Republic","city":"Laguna Salada","street_name":"Arapahoe","street_suffix":"Hill","street_number":"528"},
{"longitude":-41.2815064,"latitude":-16.0047799,"country":"Brazil","city":"Pedra Azul","street_name":"Bonner","street_suffix":"Parkway","street_number":"5"},
{"longitude":-73.7242486,"latitude":10.5289556,"country":"Colombia","city":"Fundación","street_name":"Summer Ridge","street_suffix":"Park","street_number":"60158"},
{"longitude":-47.27079,"latitude":-21.7034017,"country":"Brazil","city":"Tambaú","street_name":"Division","street_suffix":"Court","street_number":"0197"},
{"longitude":30.4896784,"latitude":60.3428116,"country":"Russia","city":"Garbolovo","street_name":"Northwestern","street_suffix":"Lane","street_number":"3"},
{"longitude":-97.3354531,"latitude":32.7011609,"country":"United States","city":"Fort Worth","street_name":"Manitowish","street_suffix":"Road","street_number":"72"},
{"longitude":112.018204,"latitude":23.438818,"country":"China","city":"Gangmian","street_name":"Schlimgen","street_suffix":"Circle","street_number":"1"},
{"longitude":-50.3069088,"latitude":-27.604634,"country":"Brazil","city":"Correia Pinto","street_name":"South","street_suffix":"Center","street_number":"2183"},
{"longitude":18.0834974,"latitude":59.2848437,"country":"Sweden","city":"Enskede","street_name":"Nancy","street_suffix":"Trail","street_number":"0"},
{"longitude":140.2895414,"latitude":36.2074633,"country":"Japan","city":"Namerikawa","street_name":"Sheridan","street_suffix":"Point","street_number":"5"},
{"longitude":"16.95723","latitude":"52.30002","country":"Poland","city":"Daszewice","street_name":"Stang","street_suffix":"Road","street_number":"523"},
{"longitude":80.91137,"latitude":43.994424,"country":"China","city":"Huiyuan","street_name":"Mayfield","street_suffix":"Lane","street_number":"8"},
{"longitude":-68.1430064,"latitude":47.0165054,"country":"Sweden","city":"Stockholm","street_name":"Corscot","street_suffix":"Trail","street_number":"81"},
{"longitude":116.39,"latitude":-3.45,"country":"Indonesia","city":"Sebuku","street_name":"Jay","street_suffix":"Lane","street_number":"13963"},
{"longitude":39.7137181,"latitude":21.6474788,"country":"Saudi Arabia","city":"Al Jumūm","street_name":"Kings","street_suffix":"Court","street_number":"3"},
{"longitude":"112.5618","latitude":"-8.3418","country":"Indonesia","city":"Krajan Srigonco","street_name":"Summit","street_suffix":"Street","street_number":"48861"},
{"longitude":23.652122,"latitude":40.7046234,"country":"Greece","city":"Néa Vrasná","street_name":"Cordelia","street_suffix":"Junction","street_number":"250"},
{"longitude":-79.7343791,"latitude":8.9308058,"country":"Panama","city":"Nuevo Arraiján","street_name":"Schiller","street_suffix":"Parkway","street_number":"8"},
{"longitude":121.0168871,"latitude":14.5671847,"country":"Philippines","city":"Unidos","street_name":"Ryan","street_suffix":"Avenue","street_number":"1021"},
{"longitude":116.838834,"latitude":38.304477,"country":"China","city":"Canghou","street_name":"Ridgeway","street_suffix":"Court","street_number":"27"},
{"longitude":-74.115187,"latitude":4.5604389,"country":"Colombia","city":"Bogotá","street_name":"Clemons","street_suffix":"Crossing","street_number":"0916"},
{"longitude":108.1013637,"latitude":-7.7414989,"country":"Indonesia","city":"Cikawunggading","street_name":"Vidon","street_suffix":"Avenue","street_number":"0605"},
{"longitude":112.28609,"latitude":-7.5740867,"country":"Indonesia","city":"Jombang","street_name":"Kedzie","street_suffix":"Pass","street_number":"449"},
{"longitude":"84.17916","latitude":"44.35542","country":"China","city":"Ji’ergele Teguoleng","street_name":"Fuller","street_suffix":"Street","street_number":"0106"},
{"longitude":19.9310781,"latitude":41.6315023,"country":"Albania","city":"Baz","street_name":"Johnson","street_suffix":"Plaza","street_number":"4518"},
{"longitude":21.215337,"latitude":51.976466,"country":"Poland","city":"Góra Kalwaria","street_name":"Hazelcrest","street_suffix":"Way","street_number":"4"},
{"longitude":46.256124,"latitude":53.2458822,"country":"Russia","city":"Inderka","street_name":"Pond","street_suffix":"Terrace","street_number":"5425"},
{"longitude":15.1335348,"latitude":58.3226908,"country":"Sweden","city":"Mjölby","street_name":"Rockefeller","street_suffix":"Park","street_number":"67"},
{"longitude":36.0269813,"latitude":49.7938443,"country":"Ukraine","city":"Utkivka","street_name":"Oak Valley","street_suffix":"Avenue","street_number":"9222"},
{"longitude":119.416209,"latitude":-5.156342,"country":"Indonesia","city":"Ratilangi","street_name":"Sunbrook","street_suffix":"Drive","street_number":"714"},
{"longitude":131.9199103,"latitude":34.1926332,"country":"Japan","city":"Mitake","street_name":"Cottonwood","street_suffix":"Way","street_number":"2769"},
{"longitude":20.2599325,"latitude":63.827461,"country":"Sweden","city":"Umeå","street_name":"Loeprich","street_suffix":"Point","street_number":"0"},
{"longitude":13.6405292,"latitude":45.4698284,"country":"Slovenia","city":"Piran","street_name":"Aberg","street_suffix":"Circle","street_number":"7"},
{"longitude":0.6732415,"latitude":48.1901461,"country":"France","city":"La Ferté-Bernard","street_name":"Donald","street_suffix":"Park","street_number":"01118"},
{"longitude":-49.1743626,"latitude":-26.7376205,"country":"Brazil","city":"Pomerode","street_name":"Burrows","street_suffix":"Drive","street_number":"4"},
{"longitude":-111.8985922,"latitude":40.7177351,"country":"United States","city":"Salt Lake City","street_name":"Butterfield","street_suffix":"Center","street_number":"44395"},
{"longitude":77.6012162,"latitude":39.2166313,"country":"China","city":"Yingwusitang","street_name":"Melrose","street_suffix":"Alley","street_number":"3"},
{"longitude":"124.4923","latitude":"-9.6218","country":"Indonesia","city":"Nunhala","street_name":"Superior","street_suffix":"Drive","street_number":"2036"},
{"longitude":10.7105679,"latitude":59.9546982,"country":"Norway","city":"Oslo","street_name":"Darwin","street_suffix":"Hill","street_number":"96243"},
{"longitude":1.4921277,"latitude":42.4657861,"country":"Andorra","city":"Sant Julià de Lòria","street_name":"Hanover","street_suffix":"Point","street_number":"9"},
{"longitude":20.1143093,"latitude":46.0245004,"country":"Serbia","city":"Novi Kneževac","street_name":"Transport","street_suffix":"Alley","street_number":"3136"},
{"longitude":-46.3660676,"latitude":-23.5441298,"country":"Brazil","city":"Ferraz de Vasconcelos","street_name":"Main","street_suffix":"Crossing","street_number":"212"},
{"longitude":115.138892,"latitude":23.124134,"country":"China","city":"Huangbu","street_name":"Almo","street_suffix":"Center","street_number":"2202"},
{"longitude":112.964446,"latitude":22.765392,"country":"China","city":"Heshan","street_name":"North","street_suffix":"Plaza","street_number":"0"},
{"longitude":-48.184644,"latitude":-21.8022635,"country":"Brazil","city":"Araraquara","street_name":"Hollow Ridge","street_suffix":"Pass","street_number":"32"},
{"longitude":129.9478595,"latitude":32.851086,"country":"Japan","city":"Isahaya","street_name":"Talisman","street_suffix":"Hill","street_number":"5409"},
{"longitude":"120.43333","latitude":"17.18333","country":"Philippines","city":"Patpata Segundo","street_name":"Gateway","street_suffix":"Lane","street_number":"4"},
{"longitude":120.1245708,"latitude":30.2827181,"country":"China","city":"Dayang","street_name":"Dorton","street_suffix":"Junction","street_number":"84"},
{"longitude":17.8046531,"latitude":59.4018083,"country":"Sweden","city":"Järfälla","street_name":"Golf View","street_suffix":"Way","street_number":"810"},
{"longitude":12.5505533,"latitude":50.182978,"country":"Czech Republic","city":"Habartov","street_name":"Lakeland","street_suffix":"Park","street_number":"1"},
{"longitude":-116.9030256,"latitude":32.5468611,"country":"Mexico","city":"Magisterial","street_name":"Superior","street_suffix":"Crossing","street_number":"9"},
{"longitude":111.11122,"latitude":22.266473,"country":"China","city":"Dajin","street_name":"Crescent Oaks","street_suffix":"Pass","street_number":"152"},
{"longitude":113.264385,"latitude":23.12911,"country":"China","city":"Guazhou","street_name":"North","street_suffix":"Way","street_number":"18"},
{"longitude":12.1927103,"latitude":-5.5775197,"country":"Angola","city":"Cabinda","street_name":"Messerschmidt","street_suffix":"Circle","street_number":"0"},
{"longitude":130.3331069,"latitude":33.5050373,"country":"Japan","city":"Sawara","street_name":"Monica","street_suffix":"Hill","street_number":"864"},
{"longitude":28.1195609,"latitude":56.387721,"country":"Latvia","city":"Zilupe","street_name":"Kingsford","street_suffix":"Pass","street_number":"05"},
{"longitude":-8.3307313,"latitude":40.0869028,"country":"Portugal","city":"Coutada","street_name":"Elka","street_suffix":"Alley","street_number":"933"},
{"longitude":38.0598668,"latitude":57.9054081,"country":"Russia","city":"Novyy Nekouz","street_name":"Amoth","street_suffix":"Circle","street_number":"6"},
{"longitude":-9.3854336,"latitude":38.8179787,"country":"Portugal","city":"Cabriz","street_name":"Northridge","street_suffix":"Way","street_number":"217"},
{"longitude":23.697829,"latitude":3.8164718,"country":"Democratic Republic of the Congo","city":"Bondo","street_name":"Walton","street_suffix":"Parkway","street_number":"240"},
{"longitude":43.5299495,"latitude":56.1747295,"country":"Russia","city":"Dzerzhinsk","street_name":"Arapahoe","street_suffix":"Parkway","street_number":"4841"},
{"longitude":-24.6949966,"latitude":14.871038,"country":"Cape Verde","city":"Vila Nova Sintra","street_name":"Hollow Ridge","street_suffix":"Drive","street_number":"17"},
{"longitude":113.121435,"latitude":23.021478,"country":"China","city":"Fushan","street_name":"Monument","street_suffix":"Point","street_number":"30"},
{"longitude":29.3714909,"latitude":-3.1572403,"country":"Burundi","city":"Bubanza","street_name":"Pierstorff","street_suffix":"Street","street_number":"01745"},
{"longitude":7.9538378,"latitude":5.8894555,"country":"Nigeria","city":"Afikpo","street_name":"Dexter","street_suffix":"Trail","street_number":"73"},
{"longitude":44.0013228,"latitude":56.2995342,"country":"Russia","city":"Nizhniy Novgorod","street_name":"Forest","street_suffix":"Court","street_number":"6"},
{"longitude":17.9701456,"latitude":59.3606836,"country":"Sweden","city":"Sundbyberg","street_name":"Commercial","street_suffix":"Center","street_number":"4"},
{"longitude":-80.5569566,"latitude":8.3048218,"country":"Panama","city":"Capellanía","street_name":"Nobel","street_suffix":"Drive","street_number":"8"},
{"longitude":-48.4939886,"latitude":-27.5918875,"country":"Brazil","city":"Itacorubi","street_name":"Sycamore","street_suffix":"Center","street_number":"143"},
{"longitude":23.5527975,"latitude":42.3369976,"country":"Bulgaria","city":"Samokov","street_name":"Katie","street_suffix":"Court","street_number":"35"},
{"longitude":123.7550863,"latitude":10.3121032,"country":"Philippines","city":"Tabonok","street_name":"Chinook","street_suffix":"Terrace","street_number":"623"},
{"longitude":70.0973718,"latitude":53.016924,"country":"Kazakhstan","city":"Būrabay","street_name":"Miller","street_suffix":"Junction","street_number":"4994"},
{"longitude":121.0317737,"latitude":14.565668,"country":"Philippines","city":"San Juan","street_name":"Almo","street_suffix":"Parkway","street_number":"19316"},
{"longitude":-9.7359765,"latitude":54.1433253,"country":"Ireland","city":"Oranmore","street_name":"Red Cloud","street_suffix":"Center","street_number":"7474"},
{"longitude":115.1918802,"latitude":-8.3765619,"country":"Indonesia","city":"Mekarsari","street_name":"Carioca","street_suffix":"Avenue","street_number":"54571"},
{"longitude":-87.0299433,"latitude":12.5679446,"country":"Nicaragua","city":"Chichigalpa","street_name":"Randy","street_suffix":"Point","street_number":"2"},
{"longitude":17.8769444,"latitude":59.3639237,"country":"Sweden","city":"Vällingby","street_name":"Declaration","street_suffix":"Circle","street_number":"41"},
{"longitude":-84.3679295,"latitude":33.8524536,"country":"United States","city":"Atlanta","street_name":"Maryland","street_suffix":"Drive","street_number":"71"},
{"longitude":-8.4523258,"latitude":51.880525,"country":"Ireland","city":"Arklow","street_name":"Claremont","street_suffix":"Drive","street_number":"0"},
{"longitude":104.2268717,"latitude":23.3794116,"country":"China","city":"Tangba","street_name":"Wayridge","street_suffix":"Hill","street_number":"241"},
{"longitude":-61.6676857,"latitude":12.0375095,"country":"Grenada","city":"Saint David’s","street_name":"Dottie","street_suffix":"Circle","street_number":"226"},
{"longitude":111.639243,"latitude":-7.1387719,"country":"Indonesia","city":"Besah","street_name":"Oakridge","street_suffix":"Parkway","street_number":"33667"},
{"longitude":119.597896,"latitude":31.723247,"country":"China","city":"Jintan","street_name":"Arizona","street_suffix":"Place","street_number":"38"},
{"longitude":121.0041022,"latitude":14.6388542,"country":"Philippines","city":"Del Monte","street_name":"Crowley","street_suffix":"Way","street_number":"0032"},
{"longitude":-8.5367175,"latitude":39.4781672,"country":"Portugal","city":"Torres Novas","street_name":"Acker","street_suffix":"Place","street_number":"837"},
{"longitude":-72.2475967,"latitude":-14.1187849,"country":"Peru","city":"Challhuahuacho","street_name":"Del Mar","street_suffix":"Pass","street_number":"5682"},
{"longitude":113.8659097,"latitude":-6.9909214,"country":"Indonesia","city":"Kebunan","street_name":"Clemons","street_suffix":"Place","street_number":"1740"},
{"longitude":37.0642852,"latitude":49.3996493,"country":"Ukraine","city":"Savyntsi","street_name":"Porter","street_suffix":"Crossing","street_number":"2"},
{"longitude":96.9182301,"latitude":3.6130855,"country":"Indonesia","city":"Pante Raja","street_name":"Haas","street_suffix":"Hill","street_number":"26"},
{"longitude":36.5260122,"latitude":56.5236763,"country":"Russia","city":"Zavidovo","street_name":"Sachtjen","street_suffix":"Alley","street_number":"9"},
{"longitude":47.4392352,"latitude":-19.3836846,"country":"Madagascar","city":"Ambatolampy","street_name":"Sage","street_suffix":"Court","street_number":"16675"},
{"longitude":-4.1974627,"latitude":14.4874284,"country":"Mali","city":"Mopti","street_name":"Forest Dale","street_suffix":"Plaza","street_number":"76"},
{"longitude":120.944359,"latitude":14.6587588,"country":"Philippines","city":"Bagong Barrio","street_name":"John Wall","street_suffix":"Terrace","street_number":"89"},
{"longitude":-98.42,"latitude":29.54,"country":"United States","city":"San Antonio","street_name":"Leroy","street_suffix":"Junction","street_number":"9769"},
{"longitude":26.7241905,"latitude":-27.9918685,"country":"South Africa","city":"Mount Ayliff","street_name":"Scofield","street_suffix":"Crossing","street_number":"90155"},
{"longitude":-69.9851563,"latitude":18.4701519,"country":"Dominican Republic","city":"Duvergé","street_name":"Havey","street_suffix":"Center","street_number":"46218"},
{"longitude":"25.85","latitude":"42.13333","country":"Bulgaria","city":"Gŭlŭbovo","street_name":"Mcguire","street_suffix":"Way","street_number":"545"},
{"longitude":123.0099723,"latitude":11.1179302,"country":"Philippines","city":"Tigbaw","street_name":"Meadow Ridge","street_suffix":"Place","street_number":"43"},
{"longitude":94.571633,"latitude":56.1114024,"country":"Russia","city":"Zelenogorsk","street_name":"Fisk","street_suffix":"Crossing","street_number":"6110"},
{"longitude":92.55497,"latitude":30.466314,"country":"China","city":"Codoi","street_name":"Marquette","street_suffix":"Street","street_number":"48"},
{"longitude":0.129895,"latitude":45.638468,"country":"France","city":"Angoulême","street_name":"Derek","street_suffix":"Parkway","street_number":"610"},
{"longitude":36.7011138,"latitude":33.7443314,"country":"Syria","city":"Ar Ruḩaybah","street_name":"Fairview","street_suffix":"Drive","street_number":"717"},
{"longitude":114.684014,"latitude":38.343295,"country":"China","city":"Xinle","street_name":"Packers","street_suffix":"Way","street_number":"6"},
{"longitude":5.2501629,"latitude":14.4634704,"country":"Niger","city":"Illéla","street_name":"Golf View","street_suffix":"Lane","street_number":"25"},
{"longitude":5.1175293,"latitude":52.08234,"country":"Netherlands","city":"Utrecht (stad)","street_name":"Melrose","street_suffix":"Hill","street_number":"0896"},
{"longitude":108.6877976,"latitude":13.1956813,"country":"Vietnam","city":"Phú Túc","street_name":"Transport","street_suffix":"Pass","street_number":"10"},
{"longitude":81.145433,"latitude":32.387233,"country":"China","city":"Geji","street_name":"Washington","street_suffix":"Park","street_number":"81583"},
{"longitude":-72.5003179,"latitude":6.552741,"country":"Colombia","city":"Chiscas","street_name":"Ruskin","street_suffix":"Avenue","street_number":"901"},
{"longitude":-37.7662816,"latitude":-7.4652278,"country":"Brazil","city":"Juru","street_name":"American","street_suffix":"Circle","street_number":"84067"},
{"longitude":9.8738907,"latitude":37.2418804,"country":"Tunisia","city":"Menzel Abderhaman","street_name":"Holy Cross","street_suffix":"Center","street_number":"8"},
{"longitude":13.8716558,"latitude":44.9279556,"country":"Croatia","city":"Galižana","street_name":"Cody","street_suffix":"Lane","street_number":"7330"},
{"longitude":20.1021063,"latitude":54.7599431,"country":"Russia","city":"Svetlyy","street_name":"Forest Run","street_suffix":"Hill","street_number":"43241"},
{"longitude":-84.54,"latitude":39.14,"country":"United States","city":"Cincinnati","street_name":"Division","street_suffix":"Junction","street_number":"11"},
{"longitude":111.688745,"latitude":22.385929,"country":"China","city":"Pinggang","street_name":"American","street_suffix":"Place","street_number":"20604"},
{"longitude":22.6037501,"latitude":40.4159844,"country":"Greece","city":"Makrýgialos","street_name":"Calypso","street_suffix":"Drive","street_number":"350"},
{"longitude":114.532957,"latitude":28.955847,"country":"China","city":"Zhengcun","street_name":"Tennyson","street_suffix":"Park","street_number":"9"},
{"longitude":108.182377,"latitude":21.808052,"country":"China","city":"Changqi","street_name":"Mariners Cove","street_suffix":"Pass","street_number":"5556"},
{"longitude":14.166977,"latitude":50.5602298,"country":"Czech Republic","city":"Žitenice","street_name":"Green Ridge","street_suffix":"Way","street_number":"50566"},
{"longitude":-64.2653484,"latitude":-31.4180746,"country":"Argentina","city":"Arauco","street_name":"Kipling","street_suffix":"Way","street_number":"4655"},
{"longitude":25.3426628,"latitude":48.1782952,"country":"Ukraine","city":"Berehomet","street_name":"Hazelcrest","street_suffix":"Point","street_number":"3"},
{"longitude":-70.7208115,"latitude":-32.75,"country":"Chile","city":"San Felipe","street_name":"Jay","street_suffix":"Place","street_number":"70712"},
{"longitude":-88.5975892,"latitude":14.8032838,"country":"Honduras","city":"Las Tejeras","street_name":"Kinsman","street_suffix":"Terrace","street_number":"84"},
{"longitude":121.0044883,"latitude":14.5458392,"country":"Philippines","city":"Aurora","street_name":"Fisk","street_suffix":"Park","street_number":"824"},
{"longitude":-105.4093552,"latitude":20.8965838,"country":"Mexico","city":"San Francisco","street_name":"Sutherland","street_suffix":"Road","street_number":"9"},
{"longitude":122.2900844,"latitude":7.3766609,"country":"Philippines","city":"Vitali","street_name":"Mitchell","street_suffix":"Plaza","street_number":"74795"},
{"longitude":32.8797802,"latitude":51.3412504,"country":"Ukraine","city":"Baturyn","street_name":"Tennessee","street_suffix":"Center","street_number":"02920"},
{"longitude":125.5131445,"latitude":7.0394127,"country":"Philippines","city":"Lambayong","street_name":"Corscot","street_suffix":"Street","street_number":"16"},
{"longitude":-74.9975,"latitude":-13.3261109,"country":"Peru","city":"Pilpichaca","street_name":"Jenifer","street_suffix":"Crossing","street_number":"2000"},
{"longitude":26.251617,"latitude":50.6199,"country":"Ukraine","city":"Rivne","street_name":"Briar Crest","street_suffix":"Drive","street_number":"2"},
{"longitude":25.6171514,"latitude":43.0756739,"country":"Bulgaria","city":"Veliko Tŭrnovo","street_name":"Chinook","street_suffix":"Hill","street_number":"7"},
{"longitude":0.964671,"latitude":45.697904,"country":"France","city":"Bordeaux","street_name":"Blaine","street_suffix":"Street","street_number":"3"},
{"longitude":119.320063,"latitude":31.784791,"country":"China","city":"Maoshan","street_name":"Service","street_suffix":"Junction","street_number":"6"},
{"longitude":19.5041229,"latitude":52.6683384,"country":"Poland","city":"Brudzeń Duży","street_name":"Fuller","street_suffix":"Avenue","street_number":"49"},
{"longitude":106.395612,"latitude":29.805107,"country":"China","city":"Beibei","street_name":"Milwaukee","street_suffix":"Place","street_number":"94"},
{"longitude":-4.7122337,"latitude":6.6574752,"country":"Ivory Coast","city":"Dimbokro","street_name":"Westend","street_suffix":"Way","street_number":"00"},
{"longitude":112.6794582,"latitude":-7.6034421,"country":"Indonesia","city":"Gempol","street_name":"Moland","street_suffix":"Place","street_number":"83"},
{"longitude":"36.48598","latitude":"34.92357","country":"Syria","city":"Talldaww","street_name":"Kedzie","street_suffix":"Trail","street_number":"9301"},
{"longitude":20.0553882,"latitude":41.6755501,"country":"Albania","city":"Derjan","street_name":"Bultman","street_suffix":"Court","street_number":"17"},
{"longitude":120.005147,"latitude":26.885704,"country":"China","city":"Xiaopu","street_name":"Ryan","street_suffix":"Alley","street_number":"99"},
{"longitude":"101.21667","latitude":"38.5","country":"China","city":"Huazhaizi","street_name":"Clemons","street_suffix":"Park","street_number":"546"},
{"longitude":-86.8697068,"latitude":14.1234415,"country":"Honduras","city":"Morocelí","street_name":"Columbus","street_suffix":"Way","street_number":"222"},
{"longitude":10.7674925,"latitude":59.905383,"country":"Norway","city":"Oslo","street_name":"Cordelia","street_suffix":"Lane","street_number":"0192"},
{"longitude":37.478747,"latitude":55.813247,"country":"Russia","city":"Pokrovskoye-Streshnëvo","street_name":"Lyons","street_suffix":"Circle","street_number":"7"},
{"longitude":119.0983524,"latitude":-9.5179699,"country":"Indonesia","city":"Waiholo","street_name":"Arizona","street_suffix":"Trail","street_number":"37907"},
{"longitude":5.7740124,"latitude":58.9583506,"country":"Norway","city":"Stavanger","street_name":"Algoma","street_suffix":"Street","street_number":"2185"},
{"longitude":116.593819,"latitude":27.423454,"country":"China","city":"Xinfengjie","street_name":"Rigney","street_suffix":"Drive","street_number":"6"},
{"longitude":20.6338361,"latitude":45.0730425,"country":"Serbia","city":"Debeljača","street_name":"Sullivan","street_suffix":"Terrace","street_number":"900"},
{"longitude":114.645657,"latitude":38.062428,"country":"China","city":"Nancun","street_name":"Moulton","street_suffix":"Park","street_number":"68"},
{"longitude":73.4106543,"latitude":5.7650768,"country":"Maldives","city":"Manadhoo","street_name":"Westport","street_suffix":"Place","street_number":"47072"},
{"longitude":119.4382459,"latitude":-9.6582303,"country":"Indonesia","city":"Tebara","street_name":"Farwell","street_suffix":"Street","street_number":"58133"},
{"longitude":135.1523126,"latitude":48.581467,"country":"Russia","city":"Fëdorovskoye","street_name":"Brown","street_suffix":"Terrace","street_number":"5"},
{"longitude":"30.64891","latitude":"46.36313","country":"Ukraine","city":"Tayirove","street_name":"Hoard","street_suffix":"Drive","street_number":"7964"},
{"longitude":113.407143,"latitude":23.131797,"country":"China","city":"Huangcun","street_name":"Sutherland","street_suffix":"Drive","street_number":"3"},
{"longitude":-91.578904,"latitude":14.63441,"country":"Guatemala","city":"San Felipe","street_name":"Chive","street_suffix":"Way","street_number":"444"},
{"longitude":110.674706,"latitude":30.199688,"country":"China","city":"Wufeng","street_name":"Thackeray","street_suffix":"Center","street_number":"69935"},
{"longitude":9.6216084,"latitude":1.4243635,"country":"Equatorial Guinea","city":"Bitica","street_name":"Susan","street_suffix":"Park","street_number":"7037"},
{"longitude":30.2813321,"latitude":59.94043,"country":"Russia","city":"Vasyl'evsky Ostrov","street_name":"Cascade","street_suffix":"Avenue","street_number":"8675"},
{"longitude":123.344062,"latitude":41.664757,"country":"China","city":"Sujiatun","street_name":"Tennyson","street_suffix":"Plaza","street_number":"054"},
{"longitude":"120.86256","latitude":"15.44485","country":"Philippines","city":"Rajal Norte","street_name":"Mccormick","street_suffix":"Junction","street_number":"34748"},
{"longitude":-100.2602364,"latitude":25.6765837,"country":"Mexico","city":"Guadalupe","street_name":"Dorton","street_suffix":"Hill","street_number":"3"},
{"longitude":111.4253892,"latitude":-7.9110809,"country":"Indonesia","city":"Krajan Tegalombo","street_name":"Arapahoe","street_suffix":"Parkway","street_number":"54408"},
{"longitude":20.5535753,"latitude":40.4187499,"country":"Albania","city":"Çlirim","street_name":"Merry","street_suffix":"Terrace","street_number":"102"},
{"longitude":120.6026406,"latitude":16.4112875,"country":"Philippines","city":"Baguio","street_name":"Kingsford","street_suffix":"Drive","street_number":"755"},
{"longitude":44.2073125,"latitude":41.3298054,"country":"Georgia","city":"Dmanisi","street_name":"Express","street_suffix":"Court","street_number":"133"},
{"longitude":50.6845648,"latitude":35.9613724,"country":"Iran","city":"Hashtgerd","street_name":"Welch","street_suffix":"Terrace","street_number":"9776"},
{"longitude":-117.9009893,"latitude":33.8181422,"country":"United States","city":"Anaheim","street_name":"Hauk","street_suffix":"Junction","street_number":"5"},
{"longitude":-8.4826853,"latitude":41.646065,"country":"Portugal","city":"Mó","street_name":"Coolidge","street_suffix":"Avenue","street_number":"719"},
{"longitude":-8.5541453,"latitude":41.3270528,"country":"Portugal","city":"Mosteirô","street_name":"Marcy","street_suffix":"Center","street_number":"282"},
{"longitude":174.9217575,"latitude":-37.0343377,"country":"New Zealand","city":"Takanini","street_name":"Hallows","street_suffix":"Park","street_number":"3436"},
{"longitude":118.244769,"latitude":28.682309,"country":"China","city":"Yushan","street_name":"Springs","street_suffix":"Parkway","street_number":"7"},
{"longitude":120.31191,"latitude":31.491169,"country":"China","city":"Wuxihe","street_name":"Sutherland","street_suffix":"Way","street_number":"376"},
{"longitude":121.0224008,"latitude":14.5609722,"country":"Philippines","city":"Bautista","street_name":"1st","street_suffix":"Lane","street_number":"24153"},
{"longitude":-77.8988897,"latitude":-8.2614583,"country":"Peru","city":"Lacabamba","street_name":"Buhler","street_suffix":"Avenue","street_number":"45"},
{"longitude":-79.8998608,"latitude":9.359302,"country":"Panama","city":"Colón","street_name":"Southridge","street_suffix":"Hill","street_number":"745"},
{"longitude":-57.2875097,"latitude":-25.5657319,"country":"Paraguay","city":"Yaguarón","street_name":"Lakewood Gardens","street_suffix":"Lane","street_number":"2"},
{"longitude":"124.80222","latitude":"8.77528","country":"Philippines","city":"Napalitan","street_name":"Morningstar","street_suffix":"Point","street_number":"20"},
{"longitude":24.8348261,"latitude":42.5459635,"country":"Bulgaria","city":"Karlovo","street_name":"Hanson","street_suffix":"Road","street_number":"00059"},
{"longitude":27.4337343,"latitude":43.3155137,"country":"Bulgaria","city":"Vetrino","street_name":"Algoma","street_suffix":"Point","street_number":"005"},
{"longitude":101.507294,"latitude":29.000347,"country":"China","city":"Jiulong","street_name":"Dakota","street_suffix":"Plaza","street_number":"96"},
{"longitude":-54.2101894,"latitude":-33.6740514,"country":"Uruguay","city":"Lascano","street_name":"Namekagon","street_suffix":"Place","street_number":"39"},
{"longitude":141.2405508,"latitude":38.6002411,"country":"Japan","city":"Susaki","street_name":"North","street_suffix":"Trail","street_number":"2"},
{"longitude":-75.47,"latitude":40.6,"country":"United States","city":"Allentown","street_name":"Vera","street_suffix":"Park","street_number":"01103"},
{"longitude":-74.796476,"latitude":6.772879,"country":"Colombia","city":"Vegachí","street_name":"Randy","street_suffix":"Terrace","street_number":"60"},
{"longitude":"121.2806","latitude":"-8.8899","country":"Indonesia","city":"Maunuri","street_name":"Warner","street_suffix":"Park","street_number":"73"},
{"longitude":113.467503,"latitude":22.254836,"country":"China","city":"Tanzhou","street_name":"Stephen","street_suffix":"Hill","street_number":"4"},
{"longitude":108.7986202,"latitude":28.0896014,"country":"China","city":"Wuluo","street_name":"Elka","street_suffix":"Place","street_number":"95316"},
{"longitude":104.8888301,"latitude":14.5265067,"country":"Thailand","city":"Ban Takhun","street_name":"Service","street_suffix":"Crossing","street_number":"7421"},
{"longitude":115.814504,"latitude":32.890479,"country":"China","city":"Futang","street_name":"Johnson","street_suffix":"Avenue","street_number":"4584"},
{"longitude":6.8029489,"latitude":6.1413122,"country":"Nigeria","city":"Onitsha","street_name":"Springs","street_suffix":"Drive","street_number":"909"},
{"longitude":124.286825,"latitude":12.50337,"country":"Philippines","city":"Allen","street_name":"Colorado","street_suffix":"Avenue","street_number":"16674"},
{"longitude":112.6626281,"latitude":-7.2679917,"country":"Indonesia","city":"Wonorejo Dua","street_name":"Del Mar","street_suffix":"Crossing","street_number":"6"},
{"longitude":109.998621,"latitude":29.322952,"country":"China","city":"Shangdongjie","street_name":"Commercial","street_suffix":"Point","street_number":"5"},
{"longitude":24.5221952,"latitude":48.8334498,"country":"Ukraine","city":"Stari Bohorodchany","street_name":"Fallview","street_suffix":"Terrace","street_number":"6"},
{"longitude":"20.94517","latitude":"41.98803","country":"Macedonia","city":"Golema Rečica","street_name":"Haas","street_suffix":"Park","street_number":"626"},
{"longitude":-7.9858152,"latitude":41.509666,"country":"Portugal","city":"Sobreira","street_name":"Victoria","street_suffix":"Street","street_number":"37"},
{"longitude":102.664376,"latitude":25.038296,"country":"China","city":"Xishan","street_name":"Mockingbird","street_suffix":"Center","street_number":"2"},
{"longitude":106.7519376,"latitude":-6.766187,"country":"Indonesia","city":"Sawahrandu","street_name":"3rd","street_suffix":"Road","street_number":"3991"},
{"longitude":102.133622,"latitude":6.1090652,"country":"Malaysia","city":"Pasir Mas","street_name":"Oneill","street_suffix":"Way","street_number":"16207"},
{"longitude":122.911283,"latitude":10.2019084,"country":"Philippines","city":"Binalbagan","street_name":"Scott","street_suffix":"Way","street_number":"886"},
{"longitude":105.8215718,"latitude":21.5743109,"country":"Vietnam","city":"Phú Thái","street_name":"Kedzie","street_suffix":"Circle","street_number":"512"},
{"longitude":36.2264681,"latitude":33.3585811,"country":"Syria","city":"Al Manşūrah","street_name":"Memorial","street_suffix":"Park","street_number":"929"},
{"longitude":120.988562,"latitude":15.7924989,"country":"Philippines","city":"Pio","street_name":"Artisan","street_suffix":"Alley","street_number":"22932"},
{"longitude":120.9800797,"latitude":13.4689232,"country":"Philippines","city":"Dulangan","street_name":"Bobwhite","street_suffix":"Parkway","street_number":"1903"},
{"longitude":5.3446343,"latitude":60.3560649,"country":"Norway","city":"Bergen","street_name":"Judy","street_suffix":"Trail","street_number":"55959"},
{"longitude":107.7632453,"latitude":-7.0180991,"country":"Indonesia","city":"Rancapanjang","street_name":"American Ash","street_suffix":"Crossing","street_number":"5683"},
{"longitude":27.7875893,"latitude":-26.17433,"country":"South Africa","city":"Thaba Nchu","street_name":"Dixon","street_suffix":"Drive","street_number":"44507"},
{"longitude":7.4592542,"latitude":48.2787299,"country":"France","city":"Sélestat","street_name":"Tomscot","street_suffix":"Street","street_number":"5"},
{"longitude":0.7423124,"latitude":45.1905186,"country":"France","city":"Trélissac","street_name":"Manley","street_suffix":"Parkway","street_number":"21192"},
{"longitude":17.2685316,"latitude":54.5017232,"country":"Poland","city":"Damnica","street_name":"Kropf","street_suffix":"Lane","street_number":"332"},
{"longitude":24.9116378,"latitude":-34.0803725,"country":"South Africa","city":"Jeffrey’s Bay","street_name":"Dahle","street_suffix":"Parkway","street_number":"70"},
{"longitude":121.555888,"latitude":18.226045,"country":"Philippines","city":"Allacapan","street_name":"Schmedeman","street_suffix":"Parkway","street_number":"4"},
{"longitude":28.7847456,"latitude":47.0302849,"country":"Moldova","city":"Floreşti","street_name":"Warrior","street_suffix":"Trail","street_number":"9940"},
{"longitude":22.55812,"latitude":62.1331515,"country":"Finland","city":"Karvia","street_name":"Fairfield","street_suffix":"Pass","street_number":"33100"},
{"longitude":23.5457018,"latitude":48.23821,"country":"Ukraine","city":"Drahovo","street_name":"Troy","street_suffix":"Alley","street_number":"673"},
{"longitude":15.7384571,"latitude":50.9575733,"country":"Poland","city":"Jeżów Sudecki","street_name":"International","street_suffix":"Way","street_number":"74"},
{"longitude":11.4679865,"latitude":58.2816546,"country":"Sweden","city":"Lysekil","street_name":"Arkansas","street_suffix":"Drive","street_number":"9701"},
{"longitude":-82.4861053,"latitude":8.7069226,"country":"Panama","city":"Potrerillos Arriba","street_name":"Jackson","street_suffix":"Avenue","street_number":"33"},
{"longitude":35.1245284,"latitude":31.5344951,"country":"Palestinian Territory","city":"Al Buq‘ah","street_name":"Oak","street_suffix":"Way","street_number":"180"},
{"longitude":115.856121,"latitude":28.759126,"country":"China","city":"Jiaoqiao","street_name":"Petterle","street_suffix":"Terrace","street_number":"6"},
{"longitude":121.161171,"latitude":32.412199,"country":"China","city":"Juzhen","street_name":"Oakridge","street_suffix":"Circle","street_number":"8349"},
{"longitude":-77.0336768,"latitude":38.8987281,"country":"United States","city":"Washington","street_name":"Sunfield","street_suffix":"Street","street_number":"4574"},
{"longitude":123.9251851,"latitude":10.8117907,"country":"Philippines","city":"Lugo","street_name":"Monterey","street_suffix":"Plaza","street_number":"9536"},
{"longitude":120.9245309,"latitude":14.347522,"country":"Philippines","city":"Sabang","street_name":"Prairieview","street_suffix":"Circle","street_number":"33056"},
{"longitude":124.3754414,"latitude":-9.6670621,"country":"Indonesia","city":"Polen","street_name":"Evergreen","street_suffix":"Court","street_number":"40657"},
{"longitude":23.6229395,"latitude":48.4851578,"country":"Ukraine","city":"Synevyr","street_name":"Fremont","street_suffix":"Point","street_number":"518"},
{"longitude":103.380604,"latitude":-1.048106,"country":"Indonesia","city":"Wongka","street_name":"Birchwood","street_suffix":"Trail","street_number":"0009"},
{"longitude":15.0399999,"latitude":59.228056,"country":"Sweden","city":"Örebro","street_name":"Dovetail","street_suffix":"Drive","street_number":"2840"},
{"longitude":101.280205,"latitude":27.928835,"country":"China","city":"Muli","street_name":"Armistice","street_suffix":"Crossing","street_number":"9"},
{"longitude":37.3046546,"latitude":55.4872242,"country":"Russia","city":"Troitsk","street_name":"John Wall","street_suffix":"Avenue","street_number":"5659"},
{"longitude":112.674488,"latitude":23.337683,"country":"China","city":"Zhenshan","street_name":"Bashford","street_suffix":"Center","street_number":"155"},
{"longitude":11.4865869,"latitude":58.3786073,"country":"Sweden","city":"Lysekil","street_name":"Heffernan","street_suffix":"Plaza","street_number":"9476"},
{"longitude":"105.75577","latitude":"43.65595","country":"Mongolia","city":"Baruunsuu","street_name":"Golf","street_suffix":"Lane","street_number":"22485"},
{"longitude":1.9038837,"latitude":43.0429124,"country":"France","city":"Lyon","street_name":"Steensland","street_suffix":"Crossing","street_number":"24"},
{"longitude":30.0025887,"latitude":54.4626821,"country":"Belarus","city":"Kokhanava","street_name":"Corry","street_suffix":"Lane","street_number":"62220"},
{"longitude":-8.270224,"latitude":41.2914665,"country":"Portugal","city":"Mata","street_name":"Blaine","street_suffix":"Plaza","street_number":"871"},
{"longitude":-73.8066163,"latitude":5.6763925,"country":"Colombia","city":"Saboyá","street_name":"Springview","street_suffix":"Parkway","street_number":"1429"},
{"longitude":-91.929029,"latitude":15.1051826,"country":"Guatemala","city":"Tajumulco","street_name":"Amoth","street_suffix":"Drive","street_number":"26"},
{"longitude":175.5843632,"latitude":-40.4057293,"country":"New Zealand","city":"Palmerston North","street_name":"Shasta","street_suffix":"Lane","street_number":"59"},
{"longitude":114.393598,"latitude":38.371268,"country":"China","city":"Nanzhai","street_name":"Fairview","street_suffix":"Street","street_number":"4743"},
{"longitude":9.9073986,"latitude":12.241259,"country":"Nigeria","city":"Keffin Hausa","street_name":"Morningstar","street_suffix":"Junction","street_number":"42722"},
{"longitude":-70.6365505,"latitude":-14.4760253,"country":"Peru","city":"Ñuñoa","street_name":"Cardinal","street_suffix":"Plaza","street_number":"7"},
{"longitude":-75.1253492,"latitude":39.9793657,"country":"United States","city":"Philadelphia","street_name":"Arizona","street_suffix":"Trail","street_number":"36427"},
{"longitude":-40.1868956,"latitude":-10.459783,"country":"Brazil","city":"Senhor do Bonfim","street_name":"Elgar","street_suffix":"Point","street_number":"045"},
{"longitude":35.9510395,"latitude":56.0349544,"country":"Russia","city":"Volokolamsk","street_name":"Cody","street_suffix":"Street","street_number":"05"},
{"longitude":116.421093,"latitude":25.257168,"country":"China","city":"Shangcai Zhongxing","street_name":"Dahle","street_suffix":"Parkway","street_number":"425"},
{"longitude":-55.0493375,"latitude":-16.0010539,"country":"Brazil","city":"Jaciara","street_name":"Truax","street_suffix":"Terrace","street_number":"165"},
{"longitude":-1.1371011,"latitude":37.9868856,"country":"Spain","city":"Murcia","street_name":"Evergreen","street_suffix":"Lane","street_number":"495"},
{"longitude":120.113289,"latitude":31.762742,"country":"China","city":"Hengshanqiao","street_name":"John Wall","street_suffix":"Road","street_number":"75"},
{"longitude":38.0807467,"latitude":46.6521155,"country":"Russia","city":"Vorontsovka","street_name":"Bluestem","street_suffix":"Terrace","street_number":"70591"},
{"longitude":44.7808312,"latitude":48.4790559,"country":"Russia","city":"Svetlyy Yar","street_name":"Tennessee","street_suffix":"Terrace","street_number":"3166"},
{"longitude":61.6905815,"latitude":57.3579277,"country":"Russia","city":"Pokrovskoye","street_name":"Northview","street_suffix":"Circle","street_number":"11614"},
{"longitude":108.8076195,"latitude":23.7247599,"country":"China","city":"Guangyi","street_name":"Meadow Ridge","street_suffix":"Lane","street_number":"8"},
{"longitude":15.4598339,"latitude":49.9287189,"country":"Czech Republic","city":"Vrdy","street_name":"Loeprich","street_suffix":"Pass","street_number":"211"},
{"longitude":15.8685645,"latitude":44.8119628,"country":"Bosnia and Herzegovina","city":"Bihać","street_name":"Grasskamp","street_suffix":"Lane","street_number":"43"},
{"longitude":24.9194195,"latitude":51.6203554,"country":"Ukraine","city":"Rakiv Lis","street_name":"Colorado","street_suffix":"Circle","street_number":"24"},
{"longitude":-9.1695689,"latitude":39.3458414,"country":"Portugal","city":"A-da-Gorda","street_name":"Bunker Hill","street_suffix":"Avenue","street_number":"6"},
{"longitude":"127.87111","latitude":"39.9475","country":"North Korea","city":"Samho-rodongjagu","street_name":"Cordelia","street_suffix":"Terrace","street_number":"633"},
{"longitude":113.697829,"latitude":-8.137,"country":"Indonesia","city":"Patrang","street_name":"Quincy","street_suffix":"Road","street_number":"6609"},
{"longitude":18.3894128,"latitude":49.8309961,"country":"Czech Republic","city":"Petřvald","street_name":"Duke","street_suffix":"Pass","street_number":"143"},
{"longitude":18.7480201,"latitude":44.4113398,"country":"Bosnia and Herzegovina","city":"Svojat","street_name":"Birchwood","street_suffix":"Street","street_number":"1"},
{"longitude":-39.734338,"latitude":-5.8002425,"country":"Brazil","city":"Mombaça","street_name":"Glacier Hill","street_suffix":"Street","street_number":"8"},
{"longitude":24.0778329,"latitude":49.980217,"country":"Ukraine","city":"Kulykiv","street_name":"Wayridge","street_suffix":"Parkway","street_number":"9372"},
{"longitude":87.450703,"latitude":47.100283,"country":"China","city":"Jetaral","street_name":"Bluestem","street_suffix":"Avenue","street_number":"35995"},
{"longitude":-9.1576429,"latitude":39.3616253,"country":"Portugal","city":"Óbidos","street_name":"Milwaukee","street_suffix":"Crossing","street_number":"1"},
{"longitude":-58.3848648,"latitude":-34.7849517,"country":"Argentina","city":"Arroyito","street_name":"Huxley","street_suffix":"Hill","street_number":"26105"},
{"longitude":72.0705185,"latitude":40.5257819,"country":"Uzbekistan","city":"Quva","street_name":"Logan","street_suffix":"Junction","street_number":"063"},
{"longitude":128.3176776,"latitude":38.6675581,"country":"South Korea","city":"Kosong","street_name":"Continental","street_suffix":"Hill","street_number":"41"},
{"longitude":-87.8660235,"latitude":13.3050684,"country":"El Salvador","city":"Conchagua","street_name":"Sage","street_suffix":"Avenue","street_number":"19709"},
{"longitude":17.9778073,"latitude":59.3687545,"country":"Sweden","city":"Sundbyberg","street_name":"Annamark","street_suffix":"Way","street_number":"92"},
{"longitude":120.5881071,"latitude":16.4452765,"country":"Philippines","city":"La Trinidad","street_name":"Claremont","street_suffix":"Junction","street_number":"59750"},
{"longitude":-7.4517472,"latitude":39.9167763,"country":"Portugal","city":"Levandeira","street_name":"Bashford","street_suffix":"Road","street_number":"62367"},
{"longitude":118.6422409,"latitude":24.9372186,"country":"China","city":"Huaqiao","street_name":"Elmside","street_suffix":"Parkway","street_number":"79"},
{"longitude":49.2628773,"latitude":58.4648143,"country":"Russia","city":"Strizhi","street_name":"Buhler","street_suffix":"Terrace","street_number":"685"},
{"longitude":120.4194593,"latitude":17.2660394,"country":"Philippines","city":"Gabao","street_name":"Sundown","street_suffix":"Center","street_number":"1883"},
{"longitude":-70.1473203,"latitude":18.2604623,"country":"Dominican Republic","city":"Sabana Grande de Palenque","street_name":"Quincy","street_suffix":"Circle","street_number":"5"},
{"longitude":105.6002024,"latitude":22.1623468,"country":"Vietnam","city":"Bằng Lũng","street_name":"Morrow","street_suffix":"Hill","street_number":"9413"},
{"longitude":109.963338,"latitude":39.822507,"country":"China","city":"Dongsheng","street_name":"Fulton","street_suffix":"Trail","street_number":"719"},
{"longitude":13.6767958,"latitude":4.5791946,"country":"Cameroon","city":"Bertoua","street_name":"Jay","street_suffix":"Terrace","street_number":"36"},
{"longitude":-8.5055146,"latitude":30.5395376,"country":"Morocco","city":"Jorf","street_name":"Spaight","street_suffix":"Crossing","street_number":"7550"},
{"longitude":133.0448635,"latitude":42.9285549,"country":"Russia","city":"Yekaterinovka","street_name":"Sugar","street_suffix":"Lane","street_number":"524"},
{"longitude":116.694183,"latitude":30.124428,"country":"China","city":"Wangjiang","street_name":"Bultman","street_suffix":"Alley","street_number":"1"},
{"longitude":114.211039,"latitude":22.324743,"country":"China","city":"Tayang","street_name":"Canary","street_suffix":"Alley","street_number":"8"},
{"longitude":100.5633676,"latitude":13.6532561,"country":"Thailand","city":"Phra Pradaeng","street_name":"Esker","street_suffix":"Street","street_number":"82206"},
{"longitude":103.40391,"latitude":3.9671435,"country":"Malaysia","city":"Kuantan","street_name":"Susan","street_suffix":"Junction","street_number":"7504"},
{"longitude":159.7540106,"latitude":6.6650328,"country":"Micronesia","city":"Mokil","street_name":"Pine View","street_suffix":"Lane","street_number":"5"},
{"longitude":102.4839212,"latitude":16.2107446,"country":"Thailand","city":"Mancha Khiri","street_name":"Westend","street_suffix":"Point","street_number":"54"},
{"longitude":26.1149716,"latitude":50.122577,"country":"Ukraine","city":"Shums’k","street_name":"Namekagon","street_suffix":"Terrace","street_number":"377"},
{"longitude":21.6020199,"latitude":50.0558922,"country":"Poland","city":"Orzech","street_name":"Green","street_suffix":"Parkway","street_number":"4012"},
{"longitude":106.0140586,"latitude":-6.4048381,"country":"Indonesia","city":"Koncang","street_name":"Texas","street_suffix":"Way","street_number":"957"},
{"longitude":16.3569786,"latitude":56.7115456,"country":"Sweden","city":"Kalmar","street_name":"Rockefeller","street_suffix":"Point","street_number":"33"},
{"longitude":100.547156,"latitude":33.320546,"country":"China","city":"Wa’eryi","street_name":"Vidon","street_suffix":"Drive","street_number":"09"},
{"longitude":120.9330931,"latitude":14.4432884,"country":"Philippines","city":"Balibago","street_name":"Fuller","street_suffix":"Park","street_number":"257"},
{"longitude":"31.1364","latitude":"52.5643","country":"Belarus","city":"Khal’ch","street_name":"Maryland","street_suffix":"Terrace","street_number":"3"},
{"longitude":-83.666758,"latitude":41.6560291,"country":"United States","city":"Toledo","street_name":"Killdeer","street_suffix":"Plaza","street_number":"27"},
{"longitude":"69.47958","latitude":"37.08571","country":"Afghanistan","city":"Ārt Khwājah","street_name":"Myrtle","street_suffix":"Crossing","street_number":"863"},
{"longitude":18.4323316,"latitude":49.7719889,"country":"Czech Republic","city":"Bohumín","street_name":"Hauk","street_suffix":"Court","street_number":"71548"},
{"longitude":-2.7033575,"latitude":42.8563356,"country":"Spain","city":"Vitoria-Gasteiz","street_name":"Crowley","street_suffix":"Street","street_number":"51197"},
{"longitude":89.0370477,"latitude":25.6833446,"country":"Bangladesh","city":"Badarganj","street_name":"Corry","street_suffix":"Crossing","street_number":"83"},
{"longitude":-71.5996137,"latitude":-35.846407,"country":"Chile","city":"Linares","street_name":"Arizona","street_suffix":"Place","street_number":"147"},
{"longitude":95.38872,"latitude":21.4662223,"country":"Myanmar","city":"Myingyan","street_name":"Banding","street_suffix":"Avenue","street_number":"341"},
{"longitude":39.0189623,"latitude":22.7906701,"country":"Saudi Arabia","city":"Rābigh","street_name":"Marcy","street_suffix":"Center","street_number":"2276"},
{"longitude":108.2021667,"latitude":16.0544068,"country":"Vietnam","city":"Da Nang","street_name":"Blackbird","street_suffix":"Plaza","street_number":"37229"},
{"longitude":8.317343,"latitude":4.9404494,"country":"Nigeria","city":"Esuk Oron","street_name":"Fulton","street_suffix":"Plaza","street_number":"710"},
{"longitude":-83.1702597,"latitude":22.9081486,"country":"Cuba","city":"Bahía Honda","street_name":"Northland","street_suffix":"Plaza","street_number":"839"},
{"longitude":9.3506604,"latitude":7.5060948,"country":"Nigeria","city":"Ugba","street_name":"Independence","street_suffix":"Plaza","street_number":"78"},
{"longitude":110.9655659,"latitude":-7.6095457,"country":"Indonesia","city":"Tegalgede Kulon","street_name":"Grayhawk","street_suffix":"Street","street_number":"876"},
{"longitude":20.7866062,"latitude":45.1611659,"country":"Serbia","city":"Samoš","street_name":"Northwestern","street_suffix":"Park","street_number":"084"},
{"longitude":110.084789,"latitude":34.477861,"country":"China","city":"Huashan","street_name":"Elgar","street_suffix":"Street","street_number":"17255"},
{"longitude":-38.2163717,"latitude":-9.4061251,"country":"Brazil","city":"Paulo Afonso","street_name":"Northfield","street_suffix":"Parkway","street_number":"1190"},
{"longitude":121.0793705,"latitude":-8.6573819,"country":"Indonesia","city":"Watublapi","street_name":"Gateway","street_suffix":"Center","street_number":"4443"},
{"longitude":107.2902839,"latitude":26.8429645,"country":"China","city":"Guzhu","street_name":"Cambridge","street_suffix":"Pass","street_number":"00"},
{"longitude":99.0571089,"latitude":18.5422768,"country":"Thailand","city":"Lamphun","street_name":"Lerdahl","street_suffix":"Circle","street_number":"7358"},
{"longitude":142.3680716,"latitude":42.3332013,"country":"Japan","city":"Shizunai-furukawachō","street_name":"Parkside","street_suffix":"Road","street_number":"6"},
{"longitude":113.875245,"latitude":35.30385,"country":"China","city":"Hongqi","street_name":"Blackbird","street_suffix":"Trail","street_number":"7772"},
{"longitude":-35.148879,"latitude":-6.6835129,"country":"Brazil","city":"Mamanguape","street_name":"Coleman","street_suffix":"Point","street_number":"961"},
{"longitude":14.7029806,"latitude":49.3788944,"country":"Czech Republic","city":"Sezimovo Ústí","street_name":"Valley Edge","street_suffix":"Junction","street_number":"9"},
{"longitude":123.449714,"latitude":41.714914,"country":"China","city":"Dongling","street_name":"Bonner","street_suffix":"Place","street_number":"49337"},
{"longitude":-8.1222717,"latitude":41.3281534,"country":"Portugal","city":"Póvoa","street_name":"Oneill","street_suffix":"Parkway","street_number":"842"},
{"longitude":108.291137,"latitude":-7.7955645,"country":"Indonesia","city":"Kalapagenep","street_name":"Toban","street_suffix":"Circle","street_number":"55"},
{"longitude":103.78883,"latitude":24.324999,"country":"China","city":"Xiaofayi","street_name":"West","street_suffix":"Center","street_number":"0577"},
{"longitude":2.4381665,"latitude":48.6277459,"country":"France","city":"Évry","street_name":"Barnett","street_suffix":"Road","street_number":"9574"},
{"longitude":20.1963089,"latitude":44.7811062,"country":"Serbia","city":"Bečmen","street_name":"Burrows","street_suffix":"Street","street_number":"386"},
{"longitude":31.5040656,"latitude":30.5765383,"country":"Egypt","city":"Zagazig","street_name":"Mayfield","street_suffix":"Way","street_number":"50339"},
{"longitude":113.751799,"latitude":23.020673,"country":"China","city":"Donggu","street_name":"Kingsford","street_suffix":"Street","street_number":"68"},
{"longitude":72.2186128,"latitude":41.3373738,"country":"Kyrgyzstan","city":"Tash-Kumyr","street_name":"Valley Edge","street_suffix":"Park","street_number":"61732"},
{"longitude":-46.7294577,"latitude":-23.3233727,"country":"Brazil","city":"Franco da Rocha","street_name":"Johnson","street_suffix":"Lane","street_number":"3828"},
{"longitude":113.050581,"latitude":34.454443,"country":"China","city":"Dengfang","street_name":"Sheridan","street_suffix":"Drive","street_number":"68279"},
{"longitude":116.452296,"latitude":39.756206,"country":"China","city":"Yinghai","street_name":"Mallard","street_suffix":"Alley","street_number":"00587"},
{"longitude":119.435046,"latitude":32.391736,"country":"China","city":"Suqu","street_name":"Service","street_suffix":"Avenue","street_number":"743"},
{"longitude":121.2408815,"latitude":14.1586723,"country":"Philippines","city":"Getulio","street_name":"Bartillon","street_suffix":"Way","street_number":"5"},
{"longitude":32.4412263,"latitude":47.4098736,"country":"Ukraine","city":"Bashtanka","street_name":"2nd","street_suffix":"Pass","street_number":"23"},
{"longitude":113.079333,"latitude":31.492565,"country":"China","city":"Sanligang","street_name":"Scoville","street_suffix":"Crossing","street_number":"259"},
{"longitude":-56.73246,"latitude":-25.53599,"country":"Paraguay","city":"San José","street_name":"Acker","street_suffix":"Street","street_number":"44"},
{"longitude":40.1985263,"latitude":56.0972538,"country":"Russia","city":"Energetik","street_name":"Merrick","street_suffix":"Lane","street_number":"76489"},
{"longitude":138.1877051,"latitude":36.6589921,"country":"Japan","city":"Nagano-shi","street_name":"Green Ridge","street_suffix":"Drive","street_number":"32"},
{"longitude":15.6592291,"latitude":58.3963779,"country":"Sweden","city":"Linköping","street_name":"Summit","street_suffix":"Park","street_number":"63861"},
{"longitude":13.0706469,"latitude":49.7165109,"country":"Czech Republic","city":"Heřmanova Huť","street_name":"Mosinee","street_suffix":"Trail","street_number":"1842"},
{"longitude":-8.151597,"latitude":41.3119638,"country":"Portugal","city":"Castanheira","street_name":"Dunning","street_suffix":"Court","street_number":"94"},
{"longitude":110.525677,"latitude":21.356694,"country":"China","city":"Longtou","street_name":"Becker","street_suffix":"Hill","street_number":"7"},
{"longitude":19.5627596,"latitude":40.727504,"country":"Albania","city":"Fier","street_name":"Swallow","street_suffix":"Circle","street_number":"5"},
{"longitude":113.297193,"latitude":23.101893,"country":"China","city":"Zhengdonglu","street_name":"Fuller","street_suffix":"Crossing","street_number":"9"},
{"longitude":102.3589828,"latitude":24.6613135,"country":"China","city":"Yuezhao","street_name":"Lake View","street_suffix":"Circle","street_number":"2914"},
{"longitude":24.6908006,"latitude":35.4181826,"country":"Greece","city":"Pánormos","street_name":"Westport","street_suffix":"Way","street_number":"475"},
{"longitude":113.081508,"latitude":22.579117,"country":"China","city":"Jiangcun","street_name":"Mendota","street_suffix":"Crossing","street_number":"6006"},
{"longitude":114.393598,"latitude":38.371268,"country":"China","city":"Nanzhai","street_name":"Saint Paul","street_suffix":"Hill","street_number":"799"},
{"longitude":110.64085,"latitude":24.310713,"country":"China","city":"Gaotian","street_name":"Hagan","street_suffix":"Circle","street_number":"679"},
{"longitude":122.505277,"latitude":10.8239425,"country":"Philippines","city":"Cadagmayan Norte","street_name":"Gale","street_suffix":"Circle","street_number":"38"},
{"longitude":-16.6525,"latitude":13.3913889,"country":"Gambia","city":"Abuko","street_name":"Mcguire","street_suffix":"Park","street_number":"00"},
{"longitude":43.5438088,"latitude":56.4808469,"country":"Russia","city":"Sergeyevka","street_name":"Mosinee","street_suffix":"Hill","street_number":"106"},
{"longitude":23.8641946,"latitude":39.1442379,"country":"Greece","city":"Patitírion","street_name":"Ramsey","street_suffix":"Way","street_number":"3"},
{"longitude":7.1769783,"latitude":47.8074536,"country":"France","city":"Cernay","street_name":"Dayton","street_suffix":"Terrace","street_number":"45604"},
{"longitude":16.818952,"latitude":51.777114,"country":"Poland","city":"Śmiłowo","street_name":"Quincy","street_suffix":"Alley","street_number":"39"},
{"longitude":-51.2003761,"latitude":-29.0303854,"country":"Brazil","city":"Flores da Cunha","street_name":"Cardinal","street_suffix":"Avenue","street_number":"828"},
{"longitude":32.6333973,"latitude":-20.1914261,"country":"Zimbabwe","city":"Chipinge","street_name":"Upham","street_suffix":"Pass","street_number":"58349"},
{"longitude":112.8975082,"latitude":58.3104915,"country":"Russia","city":"Mama","street_name":"Claremont","street_suffix":"Parkway","street_number":"041"},
{"longitude":120.2947416,"latitude":31.5126804,"country":"China","city":"Kaiyun","street_name":"Shelley","street_suffix":"Court","street_number":"99"},
{"longitude":-44.9449465,"latitude":-17.3410721,"country":"Brazil","city":"Pirapora","street_name":"Darwin","street_suffix":"Point","street_number":"65427"},
{"longitude":116.681972,"latitude":23.354091,"country":"China","city":"Shanhou","street_name":"Weeping Birch","street_suffix":"Street","street_number":"94436"},
{"longitude":-79.8184684,"latitude":-2.1596406,"country":"Ecuador","city":"Eloy Alfaro","street_name":"Nancy","street_suffix":"Hill","street_number":"695"},
{"longitude":135.2088227,"latitude":34.1470534,"country":"Japan","city":"Fujishiro","street_name":"Kensington","street_suffix":"Plaza","street_number":"80"},
{"longitude":-75.6499025,"latitude":4.8271607,"country":"Colombia","city":"Dos Quebradas","street_name":"8th","street_suffix":"Way","street_number":"6"},
{"longitude":-7.5655702,"latitude":38.4480999,"country":"Portugal","city":"Monte da Chaminé","street_name":"Schlimgen","street_suffix":"Way","street_number":"7"},
{"longitude":111.5080765,"latitude":-6.9783786,"country":"Indonesia","city":"Jiworejo","street_name":"Lotheville","street_suffix":"Way","street_number":"4"},
{"longitude":113.322332,"latitude":35.256108,"country":"China","city":"Macun","street_name":"Dovetail","street_suffix":"Hill","street_number":"244"},
{"longitude":123.431472,"latitude":41.805699,"country":"China","city":"Sanyang","street_name":"Manley","street_suffix":"Avenue","street_number":"254"},
{"longitude":17.0225772,"latitude":51.1173534,"country":"Poland","city":"Wrocław","street_name":"Mandrake","street_suffix":"Hill","street_number":"26665"},
{"longitude":-66.5581092,"latitude":10.4597466,"country":"Venezuela","city":"Guatire","street_name":"Crescent Oaks","street_suffix":"Crossing","street_number":"410"},
{"longitude":-97.1520926,"latitude":31.5140575,"country":"United States","city":"Waco","street_name":"Hauk","street_suffix":"Junction","street_number":"42466"},
{"longitude":-8.3143192,"latitude":31.2393596,"country":"Morocco","city":"Tizguine","street_name":"Dottie","street_suffix":"Parkway","street_number":"80"},
{"longitude":-69.4887886,"latitude":-11.4077673,"country":"Peru","city":"Iberia","street_name":"Eggendart","street_suffix":"Street","street_number":"008"},
{"longitude":20.2821264,"latitude":63.8191979,"country":"Sweden","city":"Umeå","street_name":"Daystar","street_suffix":"Plaza","street_number":"9836"},
{"longitude":20.5826261,"latitude":-33.2307354,"country":"South Africa","city":"Laingsburg","street_name":"Maywood","street_suffix":"Court","street_number":"51091"},
{"longitude":-12.9449928,"latitude":15.2008428,"country":"Senegal","city":"Sémé","street_name":"Golf View","street_suffix":"Lane","street_number":"792"},
{"longitude":-99.5171206,"latitude":18.3417854,"country":"Mexico","city":"Las Palmas","street_name":"Fairview","street_suffix":"Avenue","street_number":"4788"},
{"longitude":120.356297,"latitude":16.394652,"country":"Philippines","city":"San Eugenio","street_name":"Delladonna","street_suffix":"Circle","street_number":"97"},
{"longitude":113.165197,"latitude":31.938731,"country":"China","city":"Shazi","street_name":"Farragut","street_suffix":"Court","street_number":"12692"},
{"longitude":121.0204582,"latitude":14.5699334,"country":"Philippines","city":"San Jose","street_name":"Parkside","street_suffix":"Crossing","street_number":"4879"},
{"longitude":-52.3375886,"latitude":-31.7653989,"country":"Brazil","city":"Pelotas","street_name":"Daystar","street_suffix":"Pass","street_number":"7"},
{"longitude":-7.6444333,"latitude":39.306292,"country":"Portugal","city":"Flor da Rosa","street_name":"Bonner","street_suffix":"Park","street_number":"6379"},
{"longitude":25.7797078,"latitude":-30.0263293,"country":"South Africa","city":"Trompsburg","street_name":"Helena","street_suffix":"Avenue","street_number":"1"},
{"longitude":97.3678624,"latitude":16.9270749,"country":"Myanmar","city":"Thaton","street_name":"Acker","street_suffix":"Pass","street_number":"4931"},
{"longitude":113.525165,"latitude":22.801624,"country":"China","city":"Nansha","street_name":"Lukken","street_suffix":"Plaza","street_number":"701"},
{"longitude":125.182333,"latitude":10.133099,"country":"Philippines","city":"Liloan","street_name":"Sunnyside","street_suffix":"Circle","street_number":"24"},
{"longitude":174.2418241,"latitude":-39.0482569,"country":"New Zealand","city":"Waitara","street_name":"Ramsey","street_suffix":"Point","street_number":"7"},
{"longitude":13.4161644,"latitude":57.782249,"country":"Sweden","city":"Ulricehamn","street_name":"Arapahoe","street_suffix":"Center","street_number":"103"},
{"longitude":99.1018946,"latitude":58.4789614,"country":"Russia","city":"Kodinsk","street_name":"Bashford","street_suffix":"Park","street_number":"29"},
{"longitude":23.6456444,"latitude":49.2334774,"country":"Ukraine","city":"Ulichnoye","street_name":"Grayhawk","street_suffix":"Parkway","street_number":"558"},
{"longitude":106.9506175,"latitude":-6.939897,"country":"Indonesia","city":"Cibeureum","street_name":"Elgar","street_suffix":"Plaza","street_number":"272"},
{"longitude":120.589457,"latitude":30.145729,"country":"China","city":"Ma’an","street_name":"Magdeline","street_suffix":"Road","street_number":"4"},
{"longitude":43.739395,"latitude":15.4960415,"country":"Yemen","city":"Aţ Ţawīlah","street_name":"Reinke","street_suffix":"Road","street_number":"67607"},
{"longitude":102.2462087,"latitude":6.1097207,"country":"Malaysia","city":"Kota Bharu","street_name":"Carberry","street_suffix":"Pass","street_number":"71375"},
{"longitude":111.4156647,"latitude":-7.4873219,"country":"Indonesia","city":"Geneng","street_name":"Gina","street_suffix":"Plaza","street_number":"5124"},
{"longitude":7.7291951,"latitude":63.1110463,"country":"Norway","city":"Kristiansund N","street_name":"4th","street_suffix":"Circle","street_number":"792"},
{"longitude":129.3318295,"latitude":35.544405,"country":"South Korea","city":"Samsan","street_name":"Browning","street_suffix":"Place","street_number":"75"},
{"longitude":-54.3030016,"latitude":-25.3849055,"country":"Brazil","city":"São Miguel do Iguaçu","street_name":"Kenwood","street_suffix":"Terrace","street_number":"4"},
{"longitude":-9.414533,"latitude":38.7146303,"country":"Portugal","city":"Pai do Vento","street_name":"Golden Leaf","street_suffix":"Way","street_number":"85"},
{"longitude":131.9199103,"latitude":34.1926332,"country":"Japan","city":"Mitake","street_name":"Thierer","street_suffix":"Junction","street_number":"47502"},
{"longitude":107.9072626,"latitude":-7.1989224,"country":"Indonesia","city":"Haurpanggung","street_name":"Mariners Cove","street_suffix":"Center","street_number":"1326"},
{"longitude":117.419998,"latitude":25.290184,"country":"China","city":"Zhangping","street_name":"Mosinee","street_suffix":"Circle","street_number":"202"},
{"longitude":20.7866062,"latitude":45.1611659,"country":"Serbia","city":"Samoš","street_name":"Hudson","street_suffix":"Parkway","street_number":"06441"},
{"longitude":112.094594,"latitude":39.46662,"country":"China","city":"Xiamujiao","street_name":"Kim","street_suffix":"Court","street_number":"108"},
{"longitude":120.6240412,"latitude":31.306136,"country":"China","city":"Lijia","street_name":"Green Ridge","street_suffix":"Trail","street_number":"63688"},
{"longitude":55.0396912,"latitude":33.5282289,"country":"Iran","city":"Garmeh","street_name":"Sugar","street_suffix":"Street","street_number":"79292"},
{"longitude":-79.8567326,"latitude":36.1296961,"country":"China","city":"Caotan","street_name":"Golf Course","street_suffix":"Road","street_number":"03"},
{"longitude":115.104389,"latitude":35.88518,"country":"China","city":"Qingfeng","street_name":"Tomscot","street_suffix":"Court","street_number":"93"},
{"longitude":-79.242648,"latitude":-6.4240524,"country":"Peru","city":"Licupis","street_name":"Duke","street_suffix":"Drive","street_number":"621"},
{"longitude":111.9924913,"latitude":-8.1241998,"country":"Indonesia","city":"Sumberingin Kulon","street_name":"Homewood","street_suffix":"Crossing","street_number":"23334"},
{"longitude":112.1698476,"latitude":-7.7607338,"country":"Indonesia","city":"Pelem","street_name":"Chinook","street_suffix":"Avenue","street_number":"463"},
{"longitude":123.7396635,"latitude":13.1789151,"country":"Philippines","city":"Pawa","street_name":"Longview","street_suffix":"Road","street_number":"0"},
{"longitude":119.7889248,"latitude":33.1401715,"country":"China","city":"Jiangpu","street_name":"Hanover","street_suffix":"Alley","street_number":"974"},
{"longitude":38.2447393,"latitude":55.4055305,"country":"Russia","city":"Bronnitsy","street_name":"Aberg","street_suffix":"Street","street_number":"748"},
{"longitude":43.8869814,"latitude":40.660321,"country":"Armenia","city":"Horrom","street_name":"Daystar","street_suffix":"Center","street_number":"84268"},
{"longitude":-8.5496995,"latitude":41.3929185,"country":"Portugal","city":"Vilarinho das Cambas","street_name":"Stone Corner","street_suffix":"Point","street_number":"90926"},
{"longitude":30.9962356,"latitude":-26.5380011,"country":"Swaziland","city":"Bhunya","street_name":"Larry","street_suffix":"Court","street_number":"10374"},
{"longitude":71.8334145,"latitude":40.5270236,"country":"Uzbekistan","city":"Toshloq","street_name":"Ramsey","street_suffix":"Park","street_number":"30695"},
{"longitude":37.3582146,"latitude":55.6587901,"country":"Russia","city":"Novo-Peredelkino","street_name":"Kinsman","street_suffix":"Plaza","street_number":"648"},
{"longitude":-69.527634,"latitude":-15.24014,"country":"Peru","city":"Rosaspata","street_name":"Pennsylvania","street_suffix":"Drive","street_number":"4"},
{"longitude":121.990929,"latitude":12.261245,"country":"Philippines","city":"Looc","street_name":"Bayside","street_suffix":"Center","street_number":"41940"}]